{"type":"Topology","arcs":[],"objects":{"ports_indonesia":{"type":"GeometryCollection","geometries":[{"type":"Point","coordinates":[116.816667,-1.25],"properties":{"CD_NAME":"BALIKPAPAN","LATITUDE":-1.25,"LONGITUDE":116.81667,"ORIG_ID":"16919","GEO_ID":"ID1006"}},{"type":"Point","coordinates":[104.038078,1.167589],"properties":{"CD_NAME":"BATAM ISLAND","LATITUDE":1.16759,"LONGITUDE":104.03808,"ORIG_ID":"16924","GEO_ID":"ID1008"}},{"type":"Point","coordinates":[98.683333,3.783333],"properties":{"CD_NAME":"BELAWAN","LATITUDE":3.78333,"LONGITUDE":98.68333,"ORIG_ID":"16929","GEO_ID":"ID1009"}},{"type":"Point","coordinates":[117.505548,0.132065],"properties":{"CD_NAME":"BERAU","LATITUDE":0.13206,"LONGITUDE":117.50555,"ORIG_ID":"16931","GEO_ID":"ID1014"}},{"type":"Point","coordinates":[125.183333,1.433333],"properties":{"CD_NAME":"BITUNG","LATITUDE":1.43333,"LONGITUDE":125.18333,"ORIG_ID":"16963","GEO_ID":"ID1016"}},{"type":"Point","coordinates":[105.783333,-1.633333],"properties":{"CD_NAME":"BLINYU","LATITUDE":-1.63333,"LONGITUDE":105.78333,"ORIG_ID":"16967","GEO_ID":"ID1017"}},{"type":"Point","coordinates":[101.45,1.683333],"properties":{"CD_NAME":"DUMAI","LATITUDE":1.68333,"LONGITUDE":101.45,"ORIG_ID":"17093","GEO_ID":"ID1020"}},{"type":"Point","coordinates":[112.65,-7.15],"properties":{"CD_NAME":"GRESIK","LATITUDE":-7.15,"LONGITUDE":112.65,"ORIG_ID":"17243","GEO_ID":"ID1024"}},{"type":"Point","coordinates":[103.659715,-1.533524],"properties":{"CD_NAME":"JAMBI","LATITUDE":-1.53352,"LONGITUDE":103.65972,"ORIG_ID":"17348","GEO_ID":"ID1028"}},{"type":"Point","coordinates":[104.135104,1.072841],"properties":{"CD_NAME":"KABIL/PANAU","LATITUDE":1.07284,"LONGITUDE":104.1351,"ORIG_ID":"17380","GEO_ID":"ID1032"}},{"type":"Point","coordinates":[116.216667,-3.233333],"properties":{"CD_NAME":"KOTA BARU","LATITUDE":-3.23333,"LONGITUDE":116.21667,"ORIG_ID":"17420","GEO_ID":"ID1035"}},{"type":"Point","coordinates":[99.466667,3.35],"properties":{"CD_NAME":"KUALA TANJUNG","LATITUDE":3.35,"LONGITUDE":99.46667,"ORIG_ID":"17424","GEO_ID":"ID1041"}},{"type":"Point","coordinates":[111.716667,-2.75],"properties":{"CD_NAME":"KUMAI","LATITUDE":-2.75,"LONGITUDE":111.71667,"ORIG_ID":"17426","GEO_ID":"ID1043"}},{"type":"Point","coordinates":[118.931083,-2.695528],"properties":{"CD_NAME":"MAMUJU","LATITUDE":-2.69553,"LONGITUDE":118.93108,"ORIG_ID":"18620","GEO_ID":"ID1050"}},{"type":"Point","coordinates":[108.289649,-2.846932],"properties":{"CD_NAME":"MANGGAR","LATITUDE":-2.84693,"LONGITUDE":108.28965,"ORIG_ID":"18624","GEO_ID":"ID1051"}},{"type":"Point","coordinates":[117.666502,4.137294],"properties":{"CD_NAME":"NUNUKAN","LATITUDE":4.13729,"LONGITUDE":117.6665,"ORIG_ID":"17757","GEO_ID":"ID1061"}},{"type":"Point","coordinates":[104.7928355,-2.997040625],"properties":{"CD_NAME":"PALEMBANG","LATITUDE":-2.99704,"LONGITUDE":104.79284,"ORIG_ID":"17807","GEO_ID":"ID1132"}},{"type":"Point","coordinates":[105.316667,-5.466667],"properties":{"CD_NAME":"PANJANG","LATITUDE":-5.46667,"LONGITUDE":105.31667,"ORIG_ID":"17814","GEO_ID":"ID1069"}},{"type":"Point","coordinates":[119.855399,-0.710857],"properties":{"CD_NAME":"PANTOLOAN","LATITUDE":-0.71086,"LONGITUDE":119.8554,"ORIG_ID":"18689","GEO_ID":"ID1070"}},{"type":"Point","coordinates":[116.15,-3.3],"properties":{"CD_NAME":"PULAU LAUT","LATITUDE":-3.3,"LONGITUDE":116.15,"ORIG_ID":"18704","GEO_ID":"ID1133"}},{"type":"Point","coordinates":[102.548115,-0.372535],"properties":{"CD_NAME":"RENGAT","LATITUDE":-0.37254,"LONGITUDE":102.54811,"ORIG_ID":"17941","GEO_ID":"ID1086"}},{"type":"Point","coordinates":[117.116667,-0.516667],"properties":{"CD_NAME":"SAMARINDA","LATITUDE":-0.51667,"LONGITUDE":117.11667,"ORIG_ID":"18732","GEO_ID":"ID1088"}},{"type":"Point","coordinates":[113,-2.516667],"properties":{"CD_NAME":"SAMPIT","LATITUDE":-2.51667,"LONGITUDE":113,"ORIG_ID":"17980","GEO_ID":"ID1089"}},{"type":"Point","coordinates":[117.984427,0.983863],"properties":{"CD_NAME":"SANGKULIRANG","LATITUDE":0.98386,"LONGITUDE":117.98443,"ORIG_ID":"18735","GEO_ID":"ID1091"}},{"type":"Point","coordinates":[112.787332,-7.379391],"properties":{"CD_NAME":"SURABAYA","LATITUDE":-7.37939,"LONGITUDE":112.78733,"ORIG_ID":"18777","GEO_ID":"ID1108"}},{"type":"Point","coordinates":[110.425306,-6.952292],"properties":{"CD_NAME":"TANJUNG EMAS","LATITUDE":-6.95229,"LONGITUDE":110.42531,"ORIG_ID":"18128","GEO_ID":"ID1112"}},{"type":"Point","coordinates":[106.941111,-6.148722],"properties":{"CD_NAME":"TANJUNG PERAK","LATITUDE":-6.14872,"LONGITUDE":106.94111,"ORIG_ID":"18129","GEO_ID":"ID1115"}},{"type":"Point","coordinates":[106.881651,-6.1023],"properties":{"CD_NAME":"TANJUNG PRIOK","LATITUDE":-6.1023,"LONGITUDE":106.88165,"ORIG_ID":"18130","GEO_ID":"ID1117"}},{"type":"Point","coordinates":[107.629795,-2.739615],"properties":{"CD_NAME":"TANJUNGPANDAN","LATITUDE":-2.73962,"LONGITUDE":107.6298,"ORIG_ID":"18131","GEO_ID":"ID1114"}},{"type":"Point","coordinates":[105.3609885,-5.546749595],"properties":{"CD_NAME":"TARAHAN","LATITUDE":-5.54675,"LONGITUDE":105.36099,"ORIG_ID":"18132","GEO_ID":"ID1130"}},{"type":"Point","coordinates":[116.1133005,-3.27900088],"properties":{"CD_NAME":"TARJUN","LATITUDE":-3.279,"LONGITUDE":116.1133,"ORIG_ID":"18133","GEO_ID":"ID1131"}},{"type":"Point","coordinates":[100.333333,-0.95],"properties":{"CD_NAME":"TELUK BAYUR","LATITUDE":-0.95,"LONGITUDE":100.33333,"ORIG_ID":"18142","GEO_ID":"ID1063"}},{"type":"Point","coordinates":[115.167771,-8.747279],"properties":{"CD_NAME":"DENPASAR / NGURAH RAI (U)","LATITUDE":-8.74728,"LONGITUDE":115.16777,"ORIG_ID":"17077","GEO_ID":"ID1060"}},{"type":"Point","coordinates":[98.68254,3.769393],"properties":{"CD_NAME":"MEDAN / POLONIA (U)","LATITUDE":3.76939,"LONGITUDE":98.68254,"ORIG_ID":"17661","GEO_ID":"ID1054"}},{"type":"Point","coordinates":[104.700395,-2.897433],"properties":{"CD_NAME":"SM. BADARUDDIN (U)","LATITUDE":-2.89743,"LONGITUDE":104.7004,"ORIG_ID":"18046","GEO_ID":"ID1100"}},{"type":"Point","coordinates":[106.65589,-6.12508],"properties":{"CD_NAME":"SOEKARNO-HATTA (U)","LATITUDE":-6.12508,"LONGITUDE":106.65589,"ORIG_ID":"18055","GEO_ID":"ID1101"}}]}}}